villages,lat,lng
Ngouye,14.36715,-16.441645
Tuabou,14.8665572,-15.8994956
Loumene   Momath,15.48839,-15.944754
Goundafa,13.839155,-12.309654
Thieye Thieye,14.7384546,-17.4677088
MBELOGNE,15.612929,-14.387781
Thor,49.2858125,-123.122266
Fadial serrere,14.1631187,-16.7691712
Darou Minam,14.093,-15.417
Tirnguel,15.0711111,-15.4861111
Touba,14.8665572,-15.8994956
Mampatim,12.8924707,-14.3355527
Bambilor,14.79959,-17.183611
Keur  goumb,14.908855,-15.771968
Bantagnima,12.75,-15.166667
Ebarack,40.7794366,-73.963244
Kankėlėfa,14.8474389,-12.989615
Gethie,45.5154553,-73.5623129
Sinthiang Diouma,14.774882,-16.949684
Maka fall,15.980688,-16.463694
Horndolde,15.4820724,-12.969461
Sare moussa loum,13.849943,-13.742584
Medoune  ndiaye  b,40.72951339999999,-73.9964609
Soboulde,13.1685154,-15.0937378
Dendeye,14.7158,-16.0364
Somb,14.423295,-16.2136689
Deleko pathe,40.1019523,-88.2271615
Médina gounass,13.146617,-13.752088
Adeane,12.6267874,-16.0140586
Darou  ndiawene,16.0282465,-16.4832893
Ndiarno ricadji 1,15.474907,-16.232817
Baila,12.8967418,-16.3478507
Médina torobe,15.401699,-13.2055019
Karthiack,12.85892,-16.501341
Dira pont,12.5892062,-16.2627264
Thiarene,15.7670613,-13.4771899
Koar,13.7725888,-13.6710059
Ngalagne,14.572845,-16.437431
Nguarigne,14.4774056,-17.035489
Keur guéladio,14.908855,-15.771968
Sithiou dimbou mina,14.850942,-16.291102
Mbodiène,14.2304389,-16.8679899
Sare boyly,37.22551,-80.4231382
Keur mousseu,14.7802142,-17.1159605
Pendao,16.620322,-15.089071
Ndiossy,14.6373423,-17.0879032
Ouro Sidy,15.416667,-13.183333
Nghaye,14.819,-16.0468
Diout nguel,14.0501579,-16.6848833
Missirah,13.68042,-16.50128
Mbatar diop,14.499522,-16.625093
Missirah mouride,13.68042,-16.50128
Mboul,14.4228422,-16.9653756
Medina alpha,41.1334882,-81.7887765
Botaw,30.1113085,-97.3432184
Bambato,12.6052118,-15.6573821
Ndiama,12.9356273,-15.5899413
Bindago,14.497401,-14.452362
Yafera,14.774572,-12.2939589
Keur Aly Samba,13.680992,-15.878883
Madina El hadji souane,12.6982299,-15.8453924
Ndame Lo,15.892493,-15.901859
Syll thiakhene,13.9779361,-14.562614
Djifanghor,12.567655,-16.225212
Keur makandji,14.908855,-15.771968
Niaguis,12.568263,-16.172958
Beude forage,15.181099,-16.5716
Tambacounba,13.7725888,-13.6710059
Balmadou,12.6243991,-15.8591213
BARKATOU,15.6600225,-13.2576906
Thioyene,14.303292,-14.898275
NDOFFENE,13.919217,-15.9259271
Keur Souka,14.908855,-15.771968
Branssan,48.4231485,-123.366676
BADIARY,14.497401,-14.452362
Touba  Samaly,14.8665572,-15.8994956
Badiana,12.9161429,-16.4361702
Maka kahone,14.155166,-16.037436
Bokhol,16.516667,-15.4
THIAKH NIANG,14.7499663,-17.461208
Pelele Kindessa,12.3735906,-12.3836197
Houdallaye,14.192155,-12.228227
Tomba bantan gnima,44.97399,-93.2277285
Medinandrame,14.6821999,-17.450951
Diopcounda,12.823187,-15.387097
Idamouride,13.9876,-14.6644
Fouloum,14.497401,-14.452362
Kahinda,12.488625,-16.529349
Cap skirring,12.3614049,-16.7146184
Nguidile,15.4370399,-15.2194808
Ede,14.7497406,-17.5100452
Nguith,15.4002994,-15.1536731
Yeral fall,15.713093,-15.94964
Médina kanene,14.6821999,-17.450951
Saré Diaé,12.7,-15.25
Kahi,14.1321,-15.5533
Diagnon,12.583333,-15.966667
Brandoufary,12.7033366,-12.2547919
Londior ,14.270251,-15.9406128
Gagnick khodjil,14.270251,-15.9406128
Singhere mandingue,12.672876,-15.909299
Hafia Mbemba,32.7940463,34.989571
Mbary,45.4847268,-73.627969
Golonde,14.4370653,-17.0016412
Patouky,14.7498382,-17.4714214
Sakh,40.7982133,-77.8599084
Karcia,26.659447,-78.52065
Keurserignediebel,14.908855,-15.771968
Fass gounass,14.691,-17.4543767
Koulandiang,14.497401,-14.452362
Ngoundiane  samel,14.718494,-16.737057
Niankitte,12.972688,-16.229309
NDINDY,14.8943707,-16.2036778
Gantour,15.890622,-16.425352
Khourou ndiobene,14.2573123,-15.3505611
Diegoune,12.8373481,-16.362568
Ndiedieng,14.019646,-16.0640179
Bellokho hann,14.69789,-17.4369451
Wardiakhal,14.128458,-15.7439194
Darou  ndawene,16.0282465,-16.4832893
Thiafaly,14.8120373,-16.9373361
Gorom 3,14.7894438,-17.1791366
Taofekh,14.6565611,-16.2315917
Bounfassow,14.722741,-17.258266
Ndendory,15.3409,-13.0468
Djilor,14.0566349,-16.3353419
Sagatta gueth,15.2820089,-16.1713267
Mbowene,13.8986,-16.2833
Dimboli,12.4715398,-11.9982004
NDIETTE,14.6286613,-16.2945562
Khatete,15.6126361,-13.2300874
Bantankiling Soucouta,13.995527,-15.719152
Diagnoum,16.5165,-15.1425
Pambal,14.968629,-16.89579
Thiathiaw kaba keur ndiawrigne,14.908855,-15.771968
Ndiol Maure,14.284784,-16.696894
Béléle,14.7498382,-17.4714214
Mbeye,15.380245,-15.25965
Nguetou malick,14.128458,-15.7439194
Mayor,14.7145281,-17.2723371
Mboudaye,14.47376,-16.620935
Djibelor,12.552757,-16.322291
SAME goumak,13.8909974,-16.0202031
Daga balla,13.948051,-15.607976
Koylal Alpha,45.5154553,-73.5623129
Sass,28.3771857,-81.57074
Kandialon,47.85058919999999,-122.2865561
Dioly mbandakhe,0.0265717,18.2970692
Nioro alassane tall,13.7776949,-16.3390209
Thiolom diand,15.6141768,-16.22868
Badiary,14.497401,-14.452362
Mbamane,14.3337037,-15.3306814
Djiredji,12.6187,-15.7714
Gainage Mbar,14.5398422,-15.7556564
Ndioumene,16.5101114,-14.6500371
Ngueye Ngueye,15.278264,-16.451439
Djibanar,12.5446763,-15.8084823
Niaga,14.8092631,-17.2518631
Keur Sophie,14.908855,-15.771968
NGUINTH MATAT,14.8072868,-16.925531
Nianao,12.715597,-14.167063
Manconomba,14.7561322,-17.4567048
Gabou,14.71642,-12.4122682
Missirah Demba Sadio,13.68042,-16.50128
Sanoufili,14.693436,-17.459282
AFE Diop Niang,14.699949,-17.453964
Danthiady,15.5261,-13.3977
Mbarocounda,13.7725888,-13.6710059
Djilakh,14.517302,-16.887051
Baity dakhar,14.9564939,-16.8171216
Ndombolokh,14.604585,-16.715111
Diabète  tallene,47.65401360000001,-122.311748
Keur medoune mbaye,15.685801,-16.053413
Mbalamsone,14.4583336,-16.8650395
Badiangara Moussa,14.3489479,-3.609117
DJIGUAL,13.8487435,-16.0552006
Pampi,15.317304,-15.52034
Kaguitte,12.401911,-16.403189
SARE PATHE DIALLO,38.6487895,-90.31079620000001
Camara,14.7448212,-17.5125165
Sedo sebbe,15.7742542,-13.4540669
Bokh,14.7567,-16.6107
Gande,15.576545,-15.8363687
Bondie,14.416667,-15.583333
KASSAS,13.887958,-15.67593
Sine Leye kane,14.832029,-15.885219
Kafoul,14.7561322,-17.4567048
Thieumb,34.0297244,-118.4695672
Diatmel moussa,14.416817,-15.759429
Ngayene thiébou,13.6846456,-15.490293
Dakately,12.4664,-12.6511
Mobaya,14.7561322,-17.4567048
Rao gare,15.922639,-16.3964218
NDARAP,14.7902349,-17.2429976
Kaba,14.7443828,-16.6143944
Inna,47.85058919999999,-122.2865561
Ndoudiour,32.7825718,-96.76618889999999
Ndiayéne Pendao,16.5002095,-15.0455132
Mbodienne,14.2304389,-16.8679899
Darou gaye,15.012194,-16.592772
Riade,24.7135517,46.6752957
Velingara Maure,13.1440754,-14.1059408
Ndande,15.2768199,-16.5260001
Sibidianto,12.699425,-15.304121
THIOUBALEL,16.2700829,-13.9854708
Niangalan,16.2248747,-15.6881788
Diankancounda,33.6748012,-117.8752922
Ndirene,14.7912692,-17.1141145
Médina Sabakh,13.6001563,-15.5811465
Lesfalo,15.6126361,-13.2300874
Eguilaye,12.879056,-16.2838
Douba,14.8665572,-15.8994956
Ndiossi,15.3678939,-15.5342485
Hamdallaye,14.192155,-12.228227
Mbene Diouma,14.8349101,-15.9007005
Niague,14.8092631,-17.2518631
Rao Gare,15.922639,-16.3964218
Niagnar,16.593767,-14.99098
St Double Sylla,14.7354543,-17.4248027
NDIOKHOBA,15.771223,-16.420372
Samba doguelle,15.270038,-14.05063
1,14.497401,-14.452362
Keur  Ibrahima,40.6781264,-73.9852363
Mbindo,45.5125995,-73.56059549999999
Djiragone,12.945,-15.9014
Marina   ndiaye,40.7794366,-73.963244
Satte,40.7982133,-77.8599084
Camberene,14.7716841,-17.4218702
Tatene mbambara,14.675627,-16.888346
Tendouck,12.722221,-16.45365
Diakhaba,14.4630791,-16.2904635
Médina boudialabou,14.6821999,-17.450951
Keur yoro khodia,13.734559,-16.022245
MERINA  SALL,15.0123286,-16.7323097
Baghagha,12.60332,-16.0566701
Thiankoye,13.995527,-15.719152
Elinkine,12.5072598,-16.6630268
Karantaba,12.7781159,-15.4697841
Bantanghedji djida,40.7379656,-73.9760519
Faoye,14.227195,-16.577591
Sagatta  gueth,15.2820089,-16.1713267
Yabtil Diop,15.048035,-16.44187
Patouki,14.696982,-12.821154
2,14.7309898,-17.4682077
Talibâdji ouolof,14.316667,-13.033333
H1 Rao croisement,15.922639,-16.3964218
Nguedj Diop,14.0731738,-16.6934134
Ndienne,38.9054458,-77.04954719999999
Doubirou,13.183333,-14.233333
Sare ngaye,13.937936,-14.027045
Saradou,13.606067,-14.186516
NDIAKHATE GATEGNE,15.58681,-16.073109
Keur Pathe,15.831861,-16.332998
Seno Palel,16.793492,13.8100324
Dayane Gassel,14.433333,-15.816667
Saraba,14.6981132,-17.4605864
Nétéré pakane,12.912297,-13.96574
Saré Bouka,13.1440754,-14.1059408
Médina Boudialabou,14.6821999,-17.450951
LAGNAR BOU MAG,14.666424,-16.332558
Diama thiene,15.055022,-16.68219
Mbar,14.5398422,-15.7556564
Djibabouya,12.7924409,-15.9685189
Methe,14.497401,-14.452362
Ngouye thiandigue,14.36715,-16.441645
Kamacounda,13.7725888,-13.6710059
Same Fall,39.4491633,-91.0466417
Bourofaye Bainouck,12.510241,-16.27865
Mbissis dia seck,14.7389806,-17.4610313
Tattaguine,14.4250062,-16.6070268
Leba,13.526976,-15.162059
Marsassoume Santo,12.836481,-15.9773322
Rao peulh  h1 rao,15.922639,-16.3964218
Gade panghar,14.90545,-16.3518009
Loumby sabsabre,-8.783195,34.508523
Macko,12.8481657,-12.3549785
Keur   Ndery,14.908855,-15.771968
Ronkh,16.2774313,-16.1389809
Fanda,12.575849,-16.1419212
Arafa,14.066667,-15.1
Santhie goudaguene,15.0285048,-16.9011849
Diabal,14.78511,-12.46404
Mbrouvaille,14.8188776,-16.8650395
Mande kouta 1,14.283333,-16.133333
Sinthiou garba,15.5105914,-13.2606265
Thiathiaw,14.7860646,-16.9357918
THIENGUE,33.6474801,-96.5979639
Sab ka,15.247223,-16.616926
Ndoye diagne,14.6685893,-17.4329045
Darou Back,39.1623946,-84.54001339999999
Yadiana,38.8037704,-77.06238069999999
Silane,14.7361419,-16.4435885
Mississ dia,33.4551742,-88.79437659999999
Yetty khaye,15.09967,-16.229696
Ibel,12.5128679,-12.381681
siwal,40.8075355,-73.9625727
Colobane,14.6734519,-17.4632496
Ndéménelé,13.833333,-15.766667
Boulel Mody,14.2849198,-15.5342485
Mabo,13.9137639,-15.6676471
Agnack petit,12.5683796,-16.1219048
Missira diakhaly sinthiou oumar,40.7794366,-73.963244
Mbiteyene    Momath,40.7434842,-73.98722219999999
Afia Bacari,42.701848,-84.4821719
Diao  counda,13.995527,-15.719152
Seokhaye,14.7644427,-16.7292109
Ndimb thioub,14.7747141,-17.267343
Tambacoumba,13.7725888,-13.6710059
Médina degouye,14.6821999,-17.450951
Aloudia,39.6952629,3.0175712
Thiacalar,14.270251,-15.9406128
Darou salam typ,14.692671,-15.927506
Mbayene,15.17734,-16.304724
KALIR,33.5772191,-101.9347655
Bantankiling Waly,13.995527,-15.719152
Tendaba kindakam,13.43873,-15.8073816
Kadji,15.4603765,-15.0579333
Sare Mbana,13.8522276,-15.876004
Gouye,14.993048,-17.005227
Agnack grand,12.571675,-16.104181
PATHE GALLO,16.6177,-14.4535
Belly djimbara,12.8845055,-3.1428341
Ndianda,14.222893,-16.8182009
Malem   thierigne,41.0054744,-73.905759
Sinthiou samba deme,15.3688083,-13.1365521
Keur  tagiouthe,14.908855,-15.771968
Darou Tandine,13.0517,-16.5621
Nemadiaour,16.593767,-14.99098
Bountou Back,14.2166302,-12.2132778
Mansadala,13.7725888,-13.6710059
Afia bacary el hadji,38.6487895,-90.31079620000001
Diyabougou,14.543105,-12.2186229
Afia bacary demba,14.7107147,-17.4584434
T'ouba mandingue,14.772693,-15.977585
Leona,16.0168242,-16.4928616
Ndiebel,14.3467,-16.1555
Touba mbayar,14.8665572,-15.8994956
Touba Aly Mbenda,14.8665572,-15.8994956
Patar banane,14.566667,-16.383333
Thionokh sangue,14.699306,-16.959566
Keur mandongo,13.8487435,-16.0552006
Diass,14.6373423,-17.0879032
Sare Sancoule,12.898393,-15.005666
Thiangaye,16.527538,-15.171287
Diagle,16.202299,-15.69064
Pelour,15.844095,-16.4348579
BAITY  DAKHAR,14.9564939,-16.8171216
Niahene,14.0237471,-15.1873049
Keur mbin mody diouf,14.908855,-15.771968
ngaba,32.902459,101.706655
Colobane soumbel,14.6734519,-17.4632496
Kathiotte,14.0996869,-15.5558492
Fass ferlo,15.0628317,-16.1448615
Nyassia,12.471154,-16.372509
Kenewal,38.9054458,-77.04954719999999
Agnack Petit,12.5683796,-16.1219048
Belele,30.2416954,-92.0247553
TALLAKH,39.659811,-104.963834
Keur yoro soumbou,14.6054707,-17.1510315
Dayane gaselle,39.21679700000001,-84.4732485
Boukoutigho,-8.783195,34.508523
Keur nderry,14.908855,-15.771968
Gassane  Ndawene,14.8206267,-15.2926308
Darou salam,15.020773,-15.902403
Sambangar,13.995527,-15.719152
Dangalma,14.7252639,-16.5672462
Thiakho   madiale,14.0242311,-15.8391108
Sans hier gargnone,38.8985658,-77.04428419999999
Mbayene diack,15.17734,-16.304724
Nenefecha,12.5604607,-12.1747077
Gaina Mbar,14.697239,-15.646563
Keur Séyni,14.908855,-15.771968
Taiba niassene,13.7614,-15.9083
darou minam,14.093,-15.417
Sindone,12.601,-16.077164
Fongolimbi,12.4244545,-12.0061503
Boukhou,14.67544,-17.1168835
Ndiassam,14.6373423,-17.0879032
Sare Lally,40.7794366,-73.963244
Ndioral Diambaye,14.8023331,-16.5363109
Wack ngouna,13.7584764,-16.0610787
Kagnarou,12.927011,-16.226143
Poitiers,46.5793883,0.3399563
Tallen,13.5791132,-16.1750027
Ngar de  Gueth  Ardo,15.4103452,-16.0860628
Bamba mamadou,13.876145,-15.224626
Wandé,40.6413111,-73.77813909999999
Bamba thialene,13.8,-14.6167
Ndereppe,40.8075355,-73.9625727
Oudoucar,14.714411,-17.153614
NDANKH SENE,14.776901,-16.2051484
Boudy sakho,15.7944,-15.9384
Sinthiou bal,15.3688083,-13.1365521
Baline,12.92281,-16.461386
Ourour ndiodo,14.2909352,-16.0385268
Ndimb   Korki,14.870318,-16.251078
Koungheulsoce,13.9802139,-14.8016887
6,14.7291277,-17.4688662
Guarigne,14.4774056,-17.035489
Keur ayib ka,13.5958515,-15.6046002
Thiakho   thiofior,14.7498382,-17.4714214
Agniack,12.571675,-16.104181
Mboudaye    Serere,14.47376,-16.620935
Baïla ndour,12.896587,-16.3531645
Hamdallaye tessan,14.192155,-12.228227
Ndoffane,13.919217,-15.9259271
Darou Matar,16.0282465,-16.4832893
Ndindy,14.8943707,-16.2036778
Thionokh sanghe,14.699306,-16.959566
Cabrousse mossor,12.3505299,-16.716631
Gawane,14.85,-16.3667
Tivaouane peulh,14.8056993,-17.2799392
Kandioukou,13.075033,-15.61002
Koussanar Escale,13.8679162,-14.0827096
Ngodiba,14.063682,-15.50701
Khaoulou,14.604585,-16.715111
Keur Ndiouga,14.908855,-15.771968
Sare boure ramatoulaye,43.312739,-1.580979
Sagatta,15.2820089,-16.1713267
Kanel,15.4884265,-13.1754767
Médina kocoum,14.6821999,-17.450951
Koundioundou,14.7547111,-17.4736087
Diamgueune ndiaye,14.7483711,-17.3613551
Santhie gualgnonie,15.0285048,-16.9011849
Sare  mougna,34.068921,-118.4451811
Niassene Manding,16.0084589,-16.165018
Diagla,16.202299,-15.69064
Poundioum,15.933752,-16.395218
Niagha,14.8092631,-17.2518631
Mindo,44.97399,-93.2277285
Mbekhelul,40.7982133,-77.8599084
Petel Diéguess,16.5311999,-14.79267
DIAGNON,12.583333,-15.966667
Horndoldé,15.4820724,-12.969461
Poultock,14.418073,-16.695753
Thiagar,16.0326307,-16.4818167
Dnianoye,16.593767,-14.99098
Warang,14.3699709,-16.9376239
Gassane Ndawene,14.8206267,-15.2926308
Senghalène,12.4957879,-16.544348
Epingue,13.995527,-15.719152
Koudioundou,12.4693092,-16.7809682
Kanene kane,15.408636,-16.493486
Sinthiang Talong,37.4893706,-122.223814
Diagongue,14.497401,-14.452362
Thiola,14.7614374,-17.3988131
Ngadiaga,14.229619,-15.16475
Taiba,13.765256,-15.906284
Kassack  sud,16.3791,-15.9972
Gaye paradji,14.2,-13.3
Sab sabre loumby,14.471748,-14.982339
Sare  Guido  Yoba,12.766667,-14.666667
Lagarde boulou mag,42.5309387,2.8400874
Sare boure  ramatoulaye,43.312739,-1.580979
Nguick fall,15.82137,-16.181021
Kelle gueye travaux,14.7343475,-17.4175733
Barafoute,12.664984,-12.302877
MÉDINA BOCAR SY,14.6821999,-17.450951
Ngap,15.330343,-15.515643
Golmy,14.8229403,-12.3503648
Ting ting kom,33.4662902,-88.80783520000001
Petel Dieguess,16.2211253,-14.4723301
THIENDIENG,14.664357,-17.4371223
Ndiorene,14.222893,-16.8182009
Ndiaye Counda,13.924327,-15.448592
Darou Ndiaye,15.0,-16.416667
Mbambilor,14.79959,-17.183611
Labgar,45.5056156,-73.61375919999999
Thiekene,15.703671,-15.841482
Balakonko,13.5619011,-13.1740348
Gorom2,14.822827,-17.153837
Médina  El Hadji  Cherif,14.694184,-17.4681437
Djivente,14.6735588,-17.4430618
Diagnri,14.6708543,-17.0673475
Ndimb Birane,14.870318,-16.251078
Médina sy,14.08844,-15.29466
Bourofaye bainouck,12.510241,-16.27865
Ndiette,14.6286613,-16.2945562
Samba ndiaye,38.8985658,-77.04428419999999
Mbambey,14.6965115,-16.458256
Ndame,14.7731363,-15.8976012
Thioffior,14.0015581,-16.1851486
Sare sidi,45.1914227,5.7672721
Khaye barka,15.161233,-16.356844
Sandiniery,14.6704706,-17.4353571
Nétéré Pakane,12.912297,-13.96574
THIOLOME  NDIANDE,14.5916821,-16.2520438
Kheinde,40.750568,-73.993519
SARE BITEYE,12.9178856,-15.0082584
Nabadji civol,15.7380034,-13.3905003
BAL  DIOP,42.3770029,-71.11666009999999
Sinthiou  boubou,14.275801,-12.806194
Kameubeul,12.3688439,-16.7263872
Ghamoune,14.497401,-14.452362
Daga Saer,14.633333,-17.133333
Touba ndiene,14.916795,-15.9448019
Diamagueune,14.7856199,-16.9137265
Barkael,14.9026699,-12.4638538
Ouro sidy,15.416667,-13.183333
Xyz,43.1790876,-76.235293
Kamadou,14.561622,-15.892213
Velingara woulou,13.1440754,-14.1059408
Bode,16.444578,-14.351195
Dator,13.313899,-15.685545
Gueli,15.460934,-15.836341
Thisse kayemor,13.7712901,-15.5868611
Thiamene walo,13.765256,-15.906284
Khodaba,14.7685721,-17.0930714
Bakou,40.40926169999999,49.8670924
Badioula,13.995527,-15.719152
Keur Modou ndiamatou,15.661027,-16.036133
Thiaméne Walo,15.4789999,-15.8671954
Sare Sama,13.282822,-15.303216
Medina sy,14.08844,-15.29466
Sorokhassap,14.5373151,-17.0639247
Soumboundou,12.823187,-15.387097
Diaguiry,14.664357,-17.4371223
Belle,14.7184079,-17.4719161
Thiaothiao,15.447002,-16.734308
Kéracounda,12.834798,-15.349888
Goundiourou,11.648761,-11.826706
Baïty,14.4228422,-16.9653756
Darsalam,12.496346,-16.340719
Sinthiou Wouro,15.3688083,-13.1365521
Kathiote,13.9333,-15.4
Ndemenene,14.546931,-16.020405
Veligara ourouby,13.1440754,-14.1059408
TAMBANABA,13.7725888,-13.6710059
Nayobe gaye,15.651014,-16.050118
Gallade,15.084,-12.63
Sine,15.1802873,-16.744842
Fass ndiayene,41.4587113,-81.5645969
Padalal,15.343811,-12.936265
Thiakho Madiale,14.0242311,-15.8391108
Niassya,12.471154,-16.372509
Demizine,15.6126361,-13.2300874
Saremamadou,12.995899,-15.161333
Mlomp Djicomol,12.5510435,-16.5919031
Pathieme,14.8198414,-15.8952819
Kewre,14.9349165,-16.5409596
Gap (keur dieumb dia),14.908855,-15.771968
Velingara maure,13.1440754,-14.1059408
Sao Soucouta,13.7870492,-16.4779739
Darou  gaye,15.012194,-16.592772
Missirah diakhaly,13.68042,-16.50128
Keur Aly gueye,45.5188546,-73.56698449999999
Afia Thiabecare,13.233333,-13.7
Mabo   Keur   Babou    Seck,13.9137639,-15.6676471
NdiebeneToube,13.992552,-15.475546
Botou,13.8046184,-13.5798477
Belal djiga,39.9566127,-75.18994409999999
Toulde kahe,16.416667,-14.116667
THIENEL SAKHOBE,16.2248747,-15.6881788
Mangera,14.7082093,-17.4714518
Nemabah,13.7372,-16.4815
Vélin gara  nguenth,38.9531162,-77.45653879999999
Ndioum Ngainth,16.5101114,-14.6500371
Wilanene,13.3147492,-14.2123581
Fanaye,16.5258829,-15.2224062
Khourou  mbacke,14.7551751,-16.0820203
Taiba Niassene,13.7614,-15.9083
Kassack   sud,16.3791,-15.9972
Médina koily,14.6821999,-17.450951
Bembou,12.8252941,-11.8749152
Teup dall,32.8998091,-97.0403352
Diout ngeul,14.7386755,-17.5138456
Boeuf  dieng,14.7272278,-17.502421
Dendiely,14.497401,-14.452362
Ndiatta,14.7499152,-17.3881991
SINTHIANG,15.51037,-13.263462
PATAR,14.703772,-16.156868
Willa will,40.6851273,-73.9734987
Médinatou  salam,14.4431751,-16.9565206
NGUENTHE MATAR,40.3430942,-74.65507389999999
Touba fall,14.8665572,-15.8994956
Diockoul,15.3745907,-16.5164262
Saroudia,12.51317,-11.57785
Ndiambour,14.6674174,-17.4395282
Thicogne,14.7561322,-17.4567048
Bodiene,14.2304389,-16.8679899
Diaké marame,14.10683,-15.767146
Galayabe,15.520692,-13.3314109
Thiempeng,15.5833,-13.1333
Sinthiang Madia,38.9277072,-94.5672342
Keur Mady Yacine,46.78174629999999,-71.2747424
Touba niane,14.9052887,-15.8877171
Sinthiou Maleme,13.7725888,-13.6710059
Khaye ga,15.007969,-16.196804
Gassane,14.8206267,-15.2926308
Gasse doro,15.3,-14.05
Sare Maoudo Dandio,14.7561322,-17.4567048
MBEURLEUP,15.0482502,-16.8178377
Galoyabe,16.0717776,-13.8549591
KANDJI,14.6695101,-17.437713
Mback,14.8038531,-15.9053689
Gaye paradji 2,14.2,-13.3
Keur sountou,13.691138,-15.775662
Keur sarokhy,14.908855,-15.771968
Ethiolo,12.589336,-12.856031
NGUETH,46.7489604,-71.3417802
Koussawor,28.0587031,-82.41385389999999
Diao counda,13.995527,-15.719152
Ngar de Gueth Ardo,15.4103452,-16.0860628
Sakhao sérére,14.3538286,-16.4405872
TOUBA LAPPE,14.8665572,-15.8994956
Ndiakhate gatteigne,14.497401,-14.452362
Keur lahine sakho,14.908855,-15.771968
Bélél Diawlé,16.029159,-16.5038288
Keur bara feudy,13.815518,-14.991533
Mboyo,16.639572,-14.801177
Darou Diop,15.05,-16.116667
Médina mandah,13.894185,-15.407753
Falokh,14.4228422,-16.9653756
Mbobene,14.3337037,-15.3306814
Farabato,13.995527,-15.719152
Keur me Doune ndiaye,15.685801,-16.053413
Darou pakala,14.007478,-15.558228
Diagaly,33.9517376,-84.24043069999999
Sam Sam - Santhiaba Ouoloff,12.518889,-16.639299
Mbissis dia,13.995527,-15.719152
Darou  salam typ,14.692671,-15.927506
Keur omar gagué,14.874167,-16.303368
NGODIBA,14.063682,-15.50701
Darou Diene,15.0430419,-16.0463837
Tiguette,16.2774911,-16.1389579
Dioumada,14.7561322,-17.4567048
Keur  nderry,14.908855,-15.771968
Niagal,14.8092631,-17.2518631
Risso,15.0923732,-16.6357618
Ngayene,13.6928389,-15.5341249
AÉRÉ   POSTE,16.451,-14.319
Edioungou,12.5109904,-16.5819789
Boucotte ouoloff,12.4200575,-16.7500025
Nimeneké,14.0237471,-15.1873049
Diarigne,14.6708543,-17.0673475
Dankh sene,14.8324,-16.149
Kabdou,15.317054,-16.065407
Keur omar sabaly,14.908855,-15.771968
Guereo,14.5243797,-17.0938097
Kafountine,12.9283363,-16.7411559
Thisse,14.7910052,-16.9358604
Nododje,16.593767,-14.99098
Wassadou,12.7492732,-14.1596776
Diabougou,14.543105,-12.2186229
Keur Ali samba,13.680992,-15.878883
T ivaoune peulh,14.8056993,-17.2799392
Keur  Magaye,15.010633,-16.81723
Sinthiang male,15.51037,-13.263462
Ndiandiaye,13.959304,-16.348358
Keur moussa seny,14.7802142,-17.1159605
Ndiene lagane,14.5111561,-15.9259271
Guediane,14.453152,-16.723871
Gabou bilobode,14.772693,-15.977585
Ngary,41.6020403,-87.3371523
3,14.7152558,-17.4666971
Thiakho    Thiofior,14.7498382,-17.4714214
SITABA,12.8361941,-15.5254565
THIEDIENG,33.9937575,-81.0299186
Touba ndawene,14.8768468,-15.9026409
Keur samba gueye,13.943329,-16.014255
Gae,16.578735,-15.450624
Ngothie,14.2355279,-16.2122225
GOLY,16.0062771,-13.6912718
Aliou Samba,14.6964336,-16.4768577
Ndere Mbaye,14.753727,-17.4521585
Wack Ngouna,13.7584764,-16.0610787
Thiare,13.89734,-15.77906
Mbembeme,40.8075355,-73.9625727
Ndiakhaye,15.502563,-15.227509
Keur  medoune ndiaye  b,42.3770029,-71.11666009999999
Dialaka,14.6019512,-17.1469751
Bransan,13.2616023,-12.1089679
Nguithie thiandigué,12.8997479,-14.9359544
MÉDINA FRANCE,14.6821999,-17.450951
Ndiayene Momath,14.819376,-16.445772
Diamaguene,14.7856199,-16.9137265
Mbeuleup,14.105202,-15.5415755
Coubalan,12.6635421,-16.1735323
Ngar keur naimbelly,41.4543199,-72.99626409999999
Malem  thierigne,41.0054744,-73.905759
Simbandi  balante,12.550635,-15.740963
Bandoulou toucouleur,14.406261,-16.9595905
Sare walome,14.122704,-12.7248629
Kaba diack,14.7443828,-16.6143944
Boulome,12.7538925,-16.2522143
Mbeurleup,15.0482502,-16.8178377
Médina ndiobene,14.176162,-15.35799
Keur  medoune ndiaye,15.685801,-16.053413
Diandioly,15.1696104,-13.7289167
Darou ndiawene,16.0282465,-16.4832893
Bambaraya,13.116667,-12.083333
Thiakh,14.908855,-15.771968
Ndialigue,14.95,-16.383333
Gorom3,14.822827,-17.153837
Diokoul ndionguene,14.730208,-16.645218
Thione,47.62191259999999,-122.3516787
Ndarapp,14.7902349,-17.2429976
Barkedie,36.1069258,-112.1129484
Kamobeul,12.500068,-16.4352379
Sinthiang Samba Coulibali,14.7232818,-17.4787136
Keracounda,12.834798,-15.349888
Selety,13.1437357,-16.577559
Djilahogué,12.6721589,-16.0904721
Mbayene  diack,15.17734,-16.304724
Belel Diawlé,16.029159,-16.5038288
Mbardiack,14.7860646,-16.9357918
Ndiendieng,14.1652083,-16.0757749
Ekess,12.5593109,-12.870689
Lamin,41.3163244,-72.92234309999999
Rao peulh,15.922639,-16.3964218
Ngoye Djolof,14.7808978,-16.9294327
Sedo,15.774876,-13.4670731
Sendebou,14.67231,-17.20784
THIAKH,14.908855,-15.771968
Diambeye,14.1864516,-16.6586052
Ainoumane,15.020096,-16.282324
Sare samba cisse,13.334342,-15.282419
Gnolaneme,14.7389806,-17.4610313
Keur soce,13.9865,-16.0603
Sarė Sadio moudou,14.497401,-14.452362
Fassada,12.4997568,-15.557696
Ngoundoumane,13.995527,-15.719152
Diossong,41.8884176,-87.80226809999999
Keur malahine,14.908855,-15.771968
BAdiary,14.497401,-14.452362
Nguelou disse,13.8522276,-15.876004
Djignaki,14.7488177,-17.4711451
DAROU SAMBE,14.832029,-15.885219
Keurmoussandiaye,14.7802142,-17.1159605
Thioyéne,14.303292,-14.898275
Nguedj,14.01991,-16.766485
Missira demba,13.5238459,-13.511882
Djiabl,14.245842,-16.634575
Kaguit,12.401911,-16.403189
Keur  medoune  ndiaye  b,42.3770029,-71.11666009999999
Manael,15.009569,-12.5018
mbabanene,14.2431709,-15.3965581
Ourourbe,14.7204147,-17.4672218
Tallakh,39.659811,-104.963834
Tacoudiala,13.995527,-15.719152
SaoSoucouta,13.7821423,-16.4692997
Faraba,12.887103,-14.917382
Malicounda wolof,14.4842035,-16.9412098
Kalyr,14.9165428,-17.1203909
Djimbana,12.509809,-15.698576
Farabougou,14.25,-15.95
Kevoye,13.995527,-15.719152
Koudy,38.9113074,-77.0491336
Sinthiang Songa,13.3315419,-13.8245243
Ndarap,14.7902349,-17.2429976
Mbacke Ndiock,13.995527,-15.719152
Keur illo ka,38.9543439,-95.2557961
Touba   ngoundiara,13.961851,-15.83788
RISSO FALL,15.0923732,-16.6357618
Samba colo,39.612361,-104.893276
Kalyre,15.267932,-16.152376
Temento Ely,30.4132579,-91.1800023
Kaka,40.7794366,-73.963244
Yene,14.651375,-17.1837519
Mballo counda,12.9311243,-14.2014466
Lagnar' pokh,14.666424,-16.332558
Ngoundiane samel,14.718494,-16.737057
wendou,14.67231,-17.20784
Ndimb Dior,15.098306,-16.513803
Pape Gueye,29.9086885,-90.0685934
Narga,14.343634,-15.881716
Sao  Soucouta,13.7870492,-16.4779739
Fass kouteyene,14.691,-17.4543767
Nguelou mboubene,14.1652083,-16.0757749
Mbocky ndieme,13.911926,-15.449841
Ndiarga lambaye (ndiagne),15.4184221,-16.0728356
Bak Bak,14.2069519,-16.0214048
Samfal,34.0588036,-84.1712917
MÉDINA sili,14.444989,-17.015675
Ndienguene keur malobe,14.908855,-15.771968
Batara Kaba,14.7443828,-16.6143944
Same,40.798449,-73.9403449
Diakene ouolof,12.454697,-16.638454
Gawane Djida,14.212756,-15.111585
Thiakho     Thiofior,14.7498382,-17.4714214
Moudery,15.056726,-12.591721
Guediane ndiaye,14.3689284,-16.942111
FAOUNE,13.075033,-15.61002
Koboyel,13.0396236,-15.6940454
Sotokoye,13.659743,-15.769738
Mbacke Mbayare,14.8038531,-15.9053689
Dakateli,12.466667,-12.65
Bissary,12.993248,-15.710105
Loudia Ouoloff,12.511265,-16.602337
Yerimale,15.0680677,-12.8615504
Temento,12.7919928,-13.8346685
PAMBAL,14.968629,-16.89579
Keur samba rocky drame,13.943329,-16.014255
Paylar,38.1923549,-85.64639559999999
Hamdallaye mamadou,13.5568193,2.4066961
Mandina balante 2,12.5376359,-16.251493
Koutal guagne,14.085892,-16.068386
Thioffyore,38.943046,-77.0291751
Nguéguéye,15.450981,-15.989164
Sambagar,12.7033366,-12.2547919
Hamdallaye mamadou diallo 2,14.192155,-12.228227
Saremamadou egue,12.995899,-15.161333
Pouniar,14.840575,-16.531755
Mamakhono,13.1805159,-12.0561189
Polel Diaobe,15.269889,-13.000917
Pire goureye,15.0123286,-16.7323097
Keur Karime Ba,14.908855,-15.771968
Ndoka,38.4724719,-78.8775142
Thiamene ousmane,15.4789999,-15.8671954
Loudia  Ouoloff,12.511265,-16.602337
Bani diega,12.7618773,-15.1009142
Kafate,40.80368379999999,-73.953276
Eganga,41.6991133,-86.2387627
Kack,35.2862701,-86.3639907
Tawa fall,14.742191,-16.8971677
Maka baragueye,15.013215,-16.961071
Ndieulbert,14.7543231,-17.4932903
Ndienghéne keur malobé,14.908855,-15.771968
SINE LEYE KANE,14.832029,-15.885219
Lagnarboumag,14.666424,-16.332558
Carounate,12.471481,-16.522962
Dieymane,15.326223,-16.251764
Darou matar,16.0282465,-16.4832893
Bondji sinthiane,15.51037,-13.263462
Kamoya,12.872287,-15.878739
Fouloium,38.84233469999999,-104.736412
Ndiette ngohe,14.6286613,-16.2945562
Learning    Kaur me Doune ndiaye,56.1875112,-4.051706
Banane,40.8027448,-73.9507371
Koussanar,13.8679162,-14.0827096
Windows Bey,33.9415889,-118.40853
Ndigane    Serere,13.7486522,-16.4773988
Saly escale,14.4460157,-16.9889902
Médina ndrame,14.6821999,-17.450951
EBARACK,40.7794366,-73.963244
Thiamene,15.4789999,-15.8671954
Mande keur diegane thiaré,14.270251,-15.9406128
Nguick,15.82137,-16.181021
Sam mali,15.486596,-15.657897
Sinthiou moussa,15.3688083,-13.1365521
Lahi,14.7701521,-17.3606593
Ndiambour1,14.6674174,-17.4395282
Sam,45.0953319,-93.3747819
Sab Sabré,14.471748,-14.982339
Marigot,29.4259304,-98.495764
Belel Diawle,16.029159,-16.5038288
Thylla Warkhokh,14.8474389,-12.989615
Back Back,14.7283024,-17.4373409
Payoma,13.686106,-15.572626
Guethie,14.9026699,-12.4638538
Sare ngadiary,14.2,-16.083333
Boula tally,14.383333,-12.95
Dialocounda,14.4842035,-16.9412098
Diagaly  Mbowen,42.701848,-84.4821719
Médina Cherif,14.6821999,-17.450951
Ndieyene sirakh,14.709495,-16.658633
Mansakodji,14.1367815,-12.6216211
Médinatou salam,14.4431751,-16.9565206
Ndiorokh Ndoutane,14.497401,-14.452362
Darou salam 2,14.7578805,-17.4388037
Ndayar,14.5669418,-17.1262983
Ndiobene Ndeme,15.724629,-16.394213
Diamwely,14.786368,-17.311941
Ourour sinthiou,15.3688083,-13.1365521
Cabrousse nialou,12.3505299,-16.716631
Keur yoro soubou,13.734559,-16.022245
Ndiaback,14.497401,-14.452362
Missira,13.5238459,-13.511882
Keur birame,14.8284826,-15.8476614
Nguedji,4.0507229,9.6952582
Hamdallaye lomene,13.5568193,2.4066961
Ballou,14.7428345,-12.2404869
Sinthian guiro,15.51037,-13.263462
Syllacounda Diakha,12.6415985,-12.1268731
Kandiator,13.995527,-15.719152
Mbafaye,14.426406,-16.40464
Londiore,14.270251,-15.9406128
Kountada,12.9316814,-14.0827096
Douta,16.5411876,-16.1446242
Niangheme,15.077949,-16.3483069
Keur  medoune  ndiaye,15.685801,-16.053413
Boulal,15.25,-14.1
Nguethie,14.128458,-15.7439194
Mabo keur babou,13.9137639,-15.6676471
Keur  arouna  pene,14.908855,-15.771968
Diawre,15.0186358,-12.5441446
Nelby,14.7656214,-16.8911308
Dianyery Yoroya,28.3771857,-81.57074
Lamsar,16.1079573,-16.3471149
Fasse ferlo,15.8797334,-15.2502309
Dendey,38.5382322,-121.7617125
Niangene,15.077949,-16.3483069
Thilmakha,15.0379112,-16.2536853
Malemba,-8.034101,26.790893
Diatta,14.7499152,-17.3881991
Dendory,40.67446109999999,-73.94398629999999
Ndiagne,15.4184221,-16.0728356
bangakh,16.061951,-16.454944
Gapakh,45.545607,-73.561484
Ndimb    Korki,14.870318,-16.251078
Fin tel somb,14.5845291,-16.293844
Ngondiaye    Serere,14.497401,-14.452362
Ndomor,15.0635034,-16.8710173
Khondokhou,14.604585,-16.715111
Keur magueye,15.010633,-16.81723
Mbancouma,13.995527,-15.719152
Médina sily,14.444989,-17.015675
Keur baba ngoné,14.7802142,-17.1159605
Koussanar Soce,14.497401,-14.452362
Pelour  ( mboltime ),15.844095,-16.4348579
Diam  diam,14.147088,-15.283645
Diambour,13.983333,-15.816667
Boeud  dieng,14.7396137,-17.4727184
Thikogne,15.9650839,-13.594313
Mangnor,38.8867076,-77.0326074
Sinthiou Boure Bana,15.3688083,-13.1365521
Diaroume,12.9843119,-15.6163281
Koutal   Ngagne,13.8522276,-15.876004
Bogal,15.945914,-16.113876
Keur mbaye coumba,13.845253,-15.729005
Ndiarno ricadji 2,15.474907,-16.232817
TABADIANG,13.7760994,-15.6427189
Naide,14.973457,-15.878181
Nema Bah,38.8928441,-77.0403808
Keur  diogoye,14.1211666,-16.659117
AFE DIOP,40.0066723,-83.0304546
Keur ndiaye lo,14.7430342,-17.2450653
Mbodjiene,14.2304389,-16.8679899
Sinthiang Maoundé,15.51037,-13.263462
Bellel diawle,16.029159,-16.5038288
Besselel   Ndiawene,42.3770029,-71.11666009999999
Ndiarame,14.7902349,-17.2429976
Santhie    Sambou,15.0285048,-16.9011849
Sinthiou ifra,15.3688083,-13.1365521
Gamba gamba,38.8985658,-77.04428419999999
Ndangalma,14.7252639,-16.5672462
SINTHIANG Sara,15.51037,-13.263462
SAME GUEYENE,15.4370399,-15.2194808
Fadiacounda,13.6563464,-14.1589513
Diamane,14.641883,-16.552763
LONDIOR,14.270251,-15.9406128
Oudalaye,45.54561229999999,-73.56157300000001
Niakhar,14.47593,-16.403219
Gueule peulh,14.7902349,-17.2429976
Darou ndawene,16.0282465,-16.4832893
Touba Niane,14.9052887,-15.8877171
Ndienghene mody,-20.6880978,164.9435279
Santandiang,14.716677,-17.4676861
Tomboronkoto,48.4231485,-123.366676
Ndiarga lambaye,14.9493018,-16.8077852
Mandina  balante 2,12.5376359,-16.251493
Sare,43.2994285,-74.21793260000001
Samba Doguel,15.270038,-14.05063
Keur  Sountou,13.691138,-15.775662
Baila   Ndour,12.896587,-16.3531645
Keur  sidi  tall,14.908855,-15.771968
Keur Omar Sabaly,14.908855,-15.771968
AÉRÉ  POSTE,16.451,-14.319
KEREWANE,13.446536,-14.993978
Daga  Balla,13.948051,-15.607976
Diattafa,14.7499152,-17.3881991
Keur ibrahima mbaye,14.908855,-15.771968
Diagnri pont,14.7463835,-17.4589116
Ndiolhoba,15.771223,-16.420372
Keur   Bame,14.908855,-15.771968
Rao gare h1 wourou,15.922639,-16.3964218
Keur alassane diaw,14.908855,-15.771968
WORDE GODELE,25.7178924,-80.2746368
Keur    Ndery,14.908855,-15.771968
Etama,12.553095,-16.47727
Fass Dieguenne,14.691,-17.4543767
Touba Thiapato,14.8665572,-15.8994956
Kougany,-8.783195,34.508523
Keur    Soce,13.9865,-16.0603
Yarguouye,14.36715,-16.441645
Pakala,13.747717,-16.35994
Thysse,42.9391436,-89.3907939
Keur Ndene Ndao,14.908855,-15.771968
Kabiline 2,12.953219,-16.558695
Tatene mbambare,14.675627,-16.888346
Keur omar santhie,14.8475114,-15.8702692
Touba Kael Peulh,14.7119858,-15.9039005
Saly toro,14.4439458,-16.9961101
Thiaméne walo,15.4789999,-15.8671954
Rimbakh peulh,15.9156999,-15.8525154
Dioulafoundou,14.383333,-16.75
Touba  Sam,14.865665,-15.9068
Guide wouro,14.497401,-14.452362
Foumi Hara diobe,16.4989858,-14.502904
Keur sa rokhy,13.74372,-15.7732633
Fadia'Conda,40.8201966,-96.70047629999999
Soumnane,14.4850425,-17.074614
Kouthiaba wolof,13.9779361,-14.562614
Niro à tall,42.718982,-87.903021
Mbelode,13.8522276,-15.876004
Touba bantan gnlma,14.8665572,-15.8994956
Diacksao Aidara,14.7056421,-17.4551759
Doyoly,12.966667,-16.416667
Thieye  thieye,14.7384546,-17.4677088
Keur ngor tine,14.7559378,-17.5142743
Ndiayéne momath,14.819376,-16.445772
Keur   medoune   ndiaye   b,42.3770029,-71.11666009999999
Keur momar sarr,15.9230977,-15.9626436
Diakha  Madina,12.783333,-11.666667
Syllacounda,12.6415985,-12.1268731
Sine leye  kane,14.832029,-15.885219
Darourahmane,14.896447,-15.954114
Bambarayading,12.75,-15.166667
Médina  sy,14.08844,-15.29466
Koutal    Ngagne,13.8522276,-15.876004
Temento goundo,12.7919928,-13.8346685
Ngoye,14.6417724,-16.4346979
Thiolome ndiande,14.5916821,-16.2520438
Médina Ndiobene,14.176162,-15.35799
Labe thierno,11.3232042,-12.2891314
Yellingara,15.014655,-12.528425
Digane,13.879725,-16.121769
Boucotte diola,12.4159808,-16.748392
Lamsing,41.5661821,-87.5363015
Fass  ndiayene,41.4587113,-81.5645969
Thiedieng,33.9937575,-81.0299186
Nabadji Civol,15.7380034,-13.3905003
Keur Moussa Ly,14.7802142,-17.1159605
Yapen,-1.7469359,136.1709012
Niemenike,13.007048,-12.547053
SAME  GUEYENE,15.4370399,-15.2194808
Sare Tobo,12.9069027,-14.9466842
Sasse,44.4151208,-93.85230659999999
Médina alpha,14.6821999,-17.450951
Coura mouride,14.497401,-14.452362
Darou   cisse,13.886193,-16.231048
Keur ndiouga,14.908855,-15.771968
Kounghany,14.8415592,-12.4022404
Boudaye,13.930825,-16.182339
Niemeneke,14.0237471,-15.1873049
Notto gouye diama,14.993048,-17.005227
Keur  ngane,14.1429424,-16.087423
Mawa,38.913667,-77.021654
Thindy sambey,14.6964336,-16.4768577
Keur samba mbaye,13.943329,-16.014255
Sabadola,13.166667,-12.116667
Bouyouye,12.442989,-16.748943
Mboukhoutour,14.1864516,-16.6586052
Ndioukh thiorokh,14.4340744,-16.7927658
Soubacounda,13.7725888,-13.6710059
Meo meo,14.0233,-15.1083
Sab  ka,15.247223,-16.616926
Ngathie Peulh,14.497401,-14.452362
Médina tout salam2,14.6821999,-17.450951
Thiankhe,34.0953732,-118.3731763
Cagnout Ebrouaye,12.5512645,-16.6247095
Medinambayene,14.392586,-16.911368
Samoura,14.7437839,-17.509338
Béllé,45.5154553,-73.5623129
Darou Sahette,16.0282465,-16.4832893
Daga   Balla,13.948051,-15.607976
Keur   Ibrahima,40.6781264,-73.9852363
Mereto,13.8200177,-14.4388515
Namandry,14.1367815,-12.6216211
NDIOUM NGAINTH,16.5101114,-14.6500371
Mancolicounda,14.4842035,-16.9412098
Gorom 2,14.822827,-17.153837
Gade   panghar,14.90545,-16.3518009
Gawane ndodj,15.020773,-15.902403
Koffo,14.774572,-12.2939589
Sare sama,13.282822,-15.303216
Keur saloum diane,13.753866,-16.32563
Sare  kangnako,12.898393,-15.005666
Siriworo,14.7498382,-17.4714214
Keur thierno dieye,14.908855,-15.771968
Sam Fall,45.0953319,-93.3747819
Kolia,14.7034108,-17.4539902
Nargua,14.8416177,-15.8742244
Touba mbayard,14.8665572,-15.8994956
Madina toure,14.896225,-15.990265
Touba  bantan gnima,14.8665572,-15.8994956
Agnack,12.571675,-16.104181
Sere samber,13.2756591,-14.2933813
Thiaméne Ousmane,15.4789999,-15.8671954
Mbelbouk,14.272223,-16.258356
Darou rahmane,14.896447,-15.954114
Sinthiou dimbou (fass tobene),15.3688083,-13.1365521
Fasse ndiayene,14.538389,-15.716465
Sinthiou Polel,15.3688083,-13.1365521
Sare Sawindou,12.898393,-15.005666
Keur magaye,15.010633,-16.81723
Lansar-Ainoumane,14.7654117,-17.3923153
Sare Maoude Dandio,-0.049577,-78.7742537
.Mballo Counda,12.9311243,-14.2014466
Médina  kanene,14.6821999,-17.450951
Ndiene,15.326223,-16.251764
SARE DOULO,13.849943,-13.742584
Missira mboyenne,13.5238459,-13.511882
Dans alambic Bory,45.629364,-72.9907684
Palado,14.136021,-16.012509
Ngueyegueye,15.278264,-16.451439
Nguere,15.3961099,-15.1112776
Dialocouba,14.497401,-14.452362
Keur   Modou   Diamatou,15.661027,-16.036133
THIEYE THIEYE,14.7384546,-17.4677088
THIE CSSE,40.72951339999999,-73.9964609
Darou   Pakala,14.007478,-15.558228
Keur babou ngoné,13.916667,-15.216667
Koutal Ngagne,13.8522276,-15.876004
Ndiambour 2,14.6674174,-17.4395282
Khatta Nguinth,14.8072868,-16.925531
Kayemor,13.7712615,-15.5870096
Mengueye,16.0187611,-16.3588886
Samali,15.486596,-15.657897
Ngadiary,14.7306578,-17.4938651
Macina Seyni,38.8985658,-77.04428419999999
DIALAMBERE,12.827966,-14.248541
Sare wali kambadiou,51.540598,0.0324347
Bangnomba,16.061951,-16.454944
Ngor diaye   serrere,14.7441621,-17.5120556
Keur khaly sokhna,14.973351,-16.861231
Namandri,15.178288,-15.559558
Leur gane,14.7422891,-17.4709289
Beud  forage,15.181099,-16.5716
KEBE Thiylla,15.186339,-15.551219
Sinthiou Garba,15.5105914,-13.2606265
Kantar,14.747334,-17.5075953
Porame  peulh 2,-0.9577901,119.8381239
Keur Mar,14.908855,-15.771968
Keur Sountou,13.691138,-15.775662
Bodjene,51.7614518,-0.2483094
Darou pakathiar,14.832474,-17.051067
Diama  thiene,15.055022,-16.68219
Ngathie Peul,14.497401,-14.452362
Darou salam  diop,15.020773,-15.902403
Tomboronkoto sekhoto,14.664357,-17.4371223
Daga   Birame,14.633333,-17.133333
Médina Demba Billo,14.6821999,-17.450951
Bail Diop,40.714443,-74.006451
Mbatar,15.7781284,-16.2563475
Thiadia ndindy,14.8943707,-16.2036778
'Niankitte,12.972688,-16.229309
Talto,12.8997479,-14.9359544
Aliou Souare,42.3770029,-71.11666009999999
Gapasse,45.5154553,-73.5623129
Kiniabour 2,14.5714767,-17.0559502
Médina toure,14.896225,-15.990265
GUINTHE MATAR,14.7113167,-17.4687636
Darou  minam,14.093,-15.417
Sare bacary,12.832511,-15.063529
Ndiakhate,15.58681,-16.073109
Marina ndiaye,40.7794366,-73.963244
Darou  mbacke,14.8038531,-15.9053689
Dayane gassel,14.433333,-15.816667
Ndoffenne,13.919217,-15.9259271
Meo diobéne,14.566667,-16.1
KOUNAYAN,12.762421,-15.562685
Sinthiang mali,37.974424,-122.5364565
Poram peulh,15.574553,-14.804016
Khourou loumby,14.4415617,-15.8290298
Bandoulou Toucouleur,14.406261,-16.9595905
IBEL,12.5128679,-12.381681
Diake  Samba,14.266667,-15.75
Kamb,15.533333,-15.433333
Ndiayene,14.819376,-16.445772
Bissassou santo,12.584183,-15.424447
Mbediare,41.5661821,-87.5363015
PIRE  GOUREYE,15.0123286,-16.7323097
Thiofior,14.1864516,-16.6586052
Keur yoro khodio,14.7238506,-16.943389
NDIEDE,38.6127672,-90.25937979999999
Keur makatim,14.908855,-15.771968
Diakene Diola,12.442911,-16.6279429
NOTTO GOUYE DIAMA,14.993048,-17.005227
Ndramé,15.178288,-15.559558
Poram Lathie,15.574553,-14.804016
Missira Demba,13.5238459,-13.511882
Ndame LO,15.892493,-15.901859
Ndiorol Birane Diop,13.8317507,-16.3382851
Ndarrap,14.7902349,-17.2429976
Rao peulh H1 Rao,15.922639,-16.3964218
Temento Samba,12.7919928,-13.8346685
Francounda,14.497401,-14.452362
Sagnaneme,14.270251,-15.9406128
Darou cisse,13.886193,-16.231048
Ainnoumane,15.077949,-16.3483069
NGuer,14.133333,-15.816667
Drame,13.795803,-16.168142
Ndioum  Nguainth,16.5101114,-14.6500371
Mbapp,14.483333,-15.5
Sinthiou Dieka,15.3688083,-13.1365521
Ndiayene Sapeinda,14.819376,-16.445772
PADALAL,15.343811,-12.936265
Wandee,35.6810625,-105.9469694
Keur mady yacine,46.78174629999999,-71.2747424
Athiou thiambene,15.6016569,-13.3176868
Keur  Abdou   Mame,13.995527,-15.719152
Saremamadouegue,12.995899,-15.161333
Etune,46.547567,-113.9885169
Guele 2,14.85,-16.0
Sare Yira,13.1440754,-14.1059408
Darou   mbacke,14.8038531,-15.9053689
Madina,14.6821999,-17.450951
Kewelle,14.9349165,-16.5409596
Gott 1,13.7341923,-13.6592678
Bassoum,40.0066723,-83.0304546
Lislam,14.760996,-17.393216
Ndoffene,13.919217,-15.9259271
AFE  Diop,40.0066723,-83.0304546
Kathiane,14.497401,-14.452362
Darou matar  (keur matar fatou ),14.015789,-15.760206
WORDE,39.193142,-106.82142
Merina sall,15.0123286,-16.7323097
Mbar keur kao,14.908855,-15.771968
DJINANY,13.995527,-15.719152
Sinthiou polel,15.3688083,-13.1365521
Saredioulde,14.122354,-13.82566
Diaksao,14.4630791,-16.2904635
Santhie galgonie,15.0285048,-16.9011849
MBINDO,45.5125995,-73.56059549999999
Nema bah,38.8928441,-77.0403808
Back,41.80974459999999,-87.5981467
Foumi Hara Diobė,16.4989858,-14.502904
Diam diam,14.147088,-15.283645
Ngélogal Darou Minam,38.8985658,-77.04428419999999
Gouye gui,14.993048,-17.005227
Bellokho  hann,14.69789,-17.4369451
Sare Mody,40.8075355,-73.9625727
Keur Thierno Dieye,14.908855,-15.771968
Keur Sette Diabou,14.908855,-15.771968
Keur guary,14.908855,-15.771968
Doumga o alpha,15.830368,-13.4526219
MÉDINA mandah,13.894185,-15.407753
Khosanto,13.1336925,-11.967619
Keur mor kane,38.6487895,-90.31079620000001
Ndienguene Keur Malobe,14.908855,-15.771968
NIAGHA,14.8092631,-17.2518631
Guithe,29.6104376,-95.64093059999999
Darou Salam Diop,15.020773,-15.902403
Darou salam type,15.020773,-15.902403
Ndande fall,15.2768199,-16.5260001
Dialakhare,15.771223,-16.420372
Darou sambe,14.832029,-15.885219
Médina  koily,14.6821999,-17.450951
Birkama,12.5635092,-15.8422401
Lampsar,16.1079573,-16.3471149
DIAMWELLY,13.1440754,-14.1059408
H9 croisement de rao,15.922639,-16.3964218
Hamdallaye camara,14.192155,-12.228227
Thiaba,14.908855,-15.771968
Khay barka,38.8985658,-77.04428419999999
BLOC VILLAGE,32.7845366,-96.80042999999999
Sare Gueladio,12.974849,-14.926441
Belel Dady,34.068921,-118.4451811
Pouniar (ndiothie),14.840575,-16.531755
Kamatane bambara,14.19283,-16.1942999
Ndiebene toube wolof,15.9887925,-16.4420595
Haffé,13.8522276,-15.876004
Diokoul dionguene,15.3745907,-16.5164262
Keur Mor Ibra,16.3444,-15.41943
Dendeye  peulh,14.497401,-14.452362
Sambranbougou,48.4231485,-123.366676
Sabodala,13.166667,-12.116667
4Marsassoume Santo,12.836481,-15.9773322
Médina Bouli,14.6821999,-17.450951
Niamaya,13.866667,-16.633333
Sinthiang ifra,13.995527,-15.719152
Makhana,16.0884876,-16.3684552
Baiti,15.714302,-16.410536
Darou,16.0282465,-16.4832893
Ndieyene  sirakh,14.709495,-16.658633
Missirah boyéne,13.68042,-16.50128
Bruder forage,40.86935400000001,-96.72222000000001
Thiathiaw  kaba  keur ndiawrigne,14.908855,-15.771968
Terokh,45.478367,-73.5825911
SEGRE GATA,13.9995,-15.7337
Simbandi balante,12.550635,-15.740963
Keur lamine diamé,13.713799,-16.041658
Velingara,13.1440754,-14.1059408
Wande,16.2248747,-15.6881788
Porokhane,13.690613,-15.830055
Diabète   tallene,47.65401360000001,-122.311748
Maka   fall,15.980688,-16.463694
Ndayare,14.5669418,-17.1262983
Ngedie,37.3496418,-121.9389875
Bourofaye  Baynounck,12.510241,-16.27865
Affée,45.5154553,-73.5623129
Mbayene   diack,15.17734,-16.304724
Keur  bocal  barri,14.908855,-15.771968
Ndjigal,14.7902349,-17.2429976
Ndianoye,15.326223,-16.251764
Kandji,14.6695101,-17.437713
Danfa  Counda,13.919217,-15.9259271
Thiegue,14.908855,-15.771968
Mamath touré,14.725831,-16.220615
KANIKO MARONCOUNDA,12.589798,-15.594897
Daga   Youndoume   mbambara,40.798449,-73.9403449
Sakhaw,14.23725,-16.521246
Thir Nguél Siwol,16.0068567,-13.6878382
Keur Gallo,15.0337476,-16.4277792
Didiore,12.733333,-14.35
Darou salame doyoli,39.1623946,-84.54001339999999
Nguelou loyene,15.483478,-16.311165
H9 croissance de rao,15.922639,-16.3964218
Darou  salam  2,14.7578805,-17.4388037
Faranding,48.4231485,-123.366676
Pakham kouye1,14.4438949,102.72375
Sare sam niagha,37.09024,-95.712891
LANSAR,14.7496114,-17.3749044
Poram Peulh,15.574553,-14.804016
AFE DIOP NIANG,14.69115,-17.4706438
Gague,14.1201792,-16.35153
Prokhane peul,14.1707451,-16.1384433
MEDINA ALPHA MARY,13.1807648,-14.2932665
Belel  Diawle,16.029159,-16.5038288
Samba Ndiaye,38.8985658,-77.04428419999999
Mamarone,40.9408889,-73.74351469999999
Fouloume,12.8997479,-14.9359544
Maka mbaye,15.380245,-15.25965
Sam fall,45.0953319,-93.3747819
Keur  Bacari,15.495337,-16.384577
Faradianto,13.995527,-15.719152
Dimb  Gal,45.2157229,-92.127079
Babacar  ndiouck,14.69115,-17.4706438
Belel bamby,14.6959099,-16.4783497
Keur bourama bowbow,14.908855,-15.771968
Diamvely,15.389212,-13.050287
Parassel,14.132573,-15.976737
Gadiack,14.5349378,-16.5371315
Diaobe,12.9133385,-14.1611302
Daga youndoum oualof,40.7794366,-73.963244
Lambock 1,-8.650979,116.3249438
THIEMPENG,15.5833,-13.1333
Ndiokhba,40.7982133,-77.8599084
Diaymane,15.326223,-16.251764
Diara Pont,16.2248747,-15.6881788
Sinthiou boubou,14.275801,-12.806194
Baity Dakhar,14.9564939,-16.8171216
Missirah diakhily,13.68042,-16.50128
Thiengue,33.6474801,-96.5979639
Colobane la mbaye,14.6778353,-17.4579838
Keur aly samba,13.680992,-15.878883
Yene Todd,14.659116,-17.192074
Afia  Thiabecare,13.233333,-13.7
Mbar mbeguene,42.3398067,-71.0891717
Darou diop,15.05,-16.116667
Keur wakh,14.908855,-15.771968
Mayel,14.687512,-12.90313
Mbarigot,16.083054,-16.36447
Ngadiary ba,14.7306607,-17.4938658
Sagnole,14.7538535,-17.4536763
BAL DIOP,42.3770029,-71.11666009999999
Gueuth peulh,13.995527,-15.719152
Biambeye,33.6900271,-84.5095675
Santhie galgnie,15.0285048,-16.9011849
Thiawene,14.8213538,-15.9409127
Tourime,14.916667,-12.516667
Ndiambour 1,14.6674174,-17.4395282
Velingara ndialal,13.1440754,-14.1059408
Medina,14.6821999,-17.450951
Yene  Todd,14.659116,-17.192074
Sangharé,37.22838429999999,-80.42341669999999
Sanghaï,45.5154553,-73.5623129
Niobel,14.807617,-16.247444
Beud forage,15.181099,-16.5716
Nema ba,13.740911,-16.4792789
Yamane,16.105238,-15.989659
Nabadji,15.7380034,-13.3905003
Sare Guiro  yoba,12.768195,-15.10989
Mbacke mbayar,14.8038531,-15.9053689
Thiankhé Peulh,14.497401,-14.452362
Diama thieune,16.208203,-16.403782
Touba  sam,14.865665,-15.9068
Diama Gadio,14.6709349,-17.4326909
Keur guor diouf,40.8075355,-73.9625727
Tisse,14.7415424,-17.4338965
Tawfekh khey ga,32.1656221,-82.9000751
Mbilor,16.510908,-15.584742
Baligua,12.7538925,-16.2522143
Tobor,12.6594431,-16.2617759
Ndouf,14.725459,-16.668388
Mbanany,14.392586,-16.911368
Agnack  Petit,12.5683796,-16.1219048
Sare Yoba  Mballo,12.768195,-15.10989
NDEUR,15.1577742,-16.2098784
Touba bantan gnima,14.8665572,-15.8994956
Porokhane peulh,13.995527,-15.719152
NOTTO  GOUYE  DIAMA,14.993048,-17.005227
Méo diobéne,14.566667,-16.1
Briou,47.816147,1.473408
Gueyegueye,15.278264,-16.451439
Djidadji balante,12.485307,-15.621866
Mbame  serere,14.312093,-16.1644289
Touba Sam,14.865665,-15.9068
Keur seyni,14.908855,-15.771968
Keur Lahine Sakho,14.908855,-15.771968
Hamdallaye peulh,14.497401,-14.452362
Campement,14.5610881,-17.1063972
Ndimb Taba,15.6,-16.066667
Gorom,14.822827,-17.153837
Keur   Yoro    Soumbou,14.8013753,-16.9016156
Gouygui,40.802343,-73.9510933
Diayman,41.6127676,-71.45691459999999
Lakhar,14.7064836,-17.4599877
Lansar,14.7496114,-17.3749044
Gassane ndawene,14.8206267,-15.2926308
Thylla,15.516667,-15.916667
Khadji,14.7354947,-17.3005942
Thiere   fall,14.497401,-14.452362
Mousladji,14.9382726,-16.3172147
Pambal  amar,14.970118,-16.897433
Dayfa,36.186474,37.1554479
Sare Sambre,45.5154553,-73.5623129
Dar Salam,13.7228867,-13.5849104
Maka    fall,15.980688,-16.463694
Keur Soce,13.9865,-16.0603
Thiankou mbouro,15.1388454,-16.8775587
Lougoul,14.95,-16.066667
Sam Sam - Santhiaba  Ouoloff,12.518889,-16.639299
TEROKH,45.478367,-73.5825911
BLOC,38.8985658,-77.04428419999999
Tirgel,45.5154553,-73.5623129
La mbaye keur amine,13.845253,-15.729005
Thielly,28.0646888,-80.62302199999999
Pouniar (pato),14.8387836,-17.2341324
Sabré loumbi,15.749028,-13.894455
Keur yoro,14.79885,-16.822948
Afia Bacary,13.233333,-13.7
Médina Mbayene,14.036884,-14.831074
SAME gueyene,15.4370399,-15.2194808
Londior,14.270251,-15.9406128
Diala konate,45.5509441,-122.6613941
Dahra,15.3558802,-15.4829681
Mbarigo,16.083054,-16.36447
Guer,47.9048323,-2.1224238
Djibayalla,14.7182816,-17.4504659
Darou  salam 2,14.7578805,-17.4388037
AFE Diop,40.0066723,-83.0304546
Saradiou,14.23725,-16.521246
Ngoyé  ndoffongor,14.4250062,-16.6070268
Médina,14.6821999,-17.450951
Kounkousou,14.604585,-16.715111
Nguer,14.133333,-15.816667
Daga youdougne,14.633333,-17.133333
Bikama,-8.783195,34.508523
Makhanna,16.0884876,-16.3684552
DIAMA  THIENE,15.055022,-16.68219
Bourofaye Bainounck,12.510241,-16.27865
Doumga Ouro Alpha,15.830368,-13.4526219
Keur Sarokhy,14.908855,-15.771968
DIOKOUL,15.3745907,-16.5164262
Keur diegane,14.908855,-15.771968
Koumpeul,13.9779361,-14.562614
Madina diakha,12.783333,-11.666667
Darou matar  (keur matar fatou),14.015789,-15.760206
Sinthiou  Dieka,15.3688083,-13.1365521
Bary Peulh,14.6804249,-17.4422373
Nguewar,15.82137,-16.181021
Bagana,14.113753,-15.640552
Ngélogal darou Minam,38.8985658,-77.04428419999999
Ngoloum,14.217813,-15.883542
Ndoye ouolof,15.866667,-16.433333
Sa réponse Sam niagha,14.8316297,-17.2449741
Maka fass,14.155166,-16.037436
Korki bambara,14.128483,-15.707421
Gap,40.0178641,-105.2763041
Medina Meta (Sare Meta),12.9481956,-14.0149039
Diorene,13.233333,-14.666667
TALAKH,14.6395948,-16.2255098
Ndiague,13.99284,-15.813743
Tawafall,14.742191,-16.8971677
KEBE THILLA,15.186339,-15.551219
Niro à t,40.7127753,-74.0059728
Sare Ansou,13.849943,-13.742584
Doumga ouro alpha,15.830368,-13.4526219
Kamebeul,15.982713,-14.109353
Mbodjene,14.2304389,-16.8679899
Médina  kocoum,14.6821999,-17.450951
Kassassa,14.022273,-14.84594
Ndiaye counda,13.924327,-15.448592
Keur bidji awa,13.65,-15.983333
Afia Bacary El hadji,38.6487895,-90.31079620000001
Ndiobel,15.724629,-16.394213
NDOMOR  DIOP,13.8317507,-16.3382851
Sare Sankoule,13.1440754,-14.1059408
Daroou sambe,13.943329,-16.014255
Portant Lathi,45.5154553,-73.5623129
Boulel Mpdy,14.2849198,-15.5342485
Keur edy,14.908855,-15.771968
Ndiengene keur malobe,14.908855,-15.771968
Pelour (mboltime ),15.844095,-16.4348579
Ngathie fall,14.095794,-15.8773988
Thiara Counda,14.497401,-14.452362
Mboulougne séné wolof,14.8193611,-15.8376114
Sare coba,12.768195,-15.10989
TOUBA MBAYARD,14.8665572,-15.8994956
Daga  Birame,14.633333,-17.133333
Gagué mody,14.131901,-16.3985753
Medina gounass,13.146617,-13.752088
KEUR GANE,14.595098,-16.33359
AÉRÉ POSTE,16.451,-14.319
Mande kouta 2,14.283333,-16.133333
Bantanghedji,12.75,-15.166667
Thiolongane,13.927552,-16.627781
Thionokhe,14.7561322,-17.4567048
Djery,14.497401,-14.452362
Ball diop,38.2122761,-85.75850229999999
Linguekone,15.3961099,-15.1112776
AFE diop Niang,14.699949,-17.453964
Keur  birame,14.8284826,-15.8476614
Diagali,14.561166,-12.199066
Maka Samba,14.497401,-14.452362
Keur serigne mor djite,14.8844908,-15.8824773
Medina Meta (Sare Meta ),12.9481956,-14.0149039
Poram lathi,15.574553,-14.804016
Kalir,33.5772191,-101.9347655
Ndoye  ouolof,15.866667,-16.433333
Koylal   Moussa  Boye,40.7563454,-73.9239496
Touba   kael,14.7119858,-15.9039005
Touba Aly mbenda,14.8665572,-15.8994956
NDialakhare,14.7683601,-17.229187
Ngueye ngueye,15.278264,-16.451439
Thiamene pass,15.4789999,-15.8671954
Diedieng,39.0999195,-84.5119675
Yarera,40.678933,-73.98245299999999
Gade Ndiakhar,14.47593,-16.403219
Digane  serre,14.7656214,-16.8911308
SOUPAM,43.7044406,-72.2886935
LAGNAR POKH,14.666424,-16.332558
Ouyal sandé,14.497401,-14.452362
Ndande  fall,15.2768199,-16.5260001
Santhie gualgoné,15.0285048,-16.9011849
Barafouté,12.664984,-12.302877
Keur ngor,14.746548,-17.5131103
Ndiorol diambaye,14.1323579,-16.0708414
